<?xml version="1.0" encoding="UTF-8" ?>
<manifest>
<version major="0" minor="1"/>
<registry>
   <item key="C3_HeightMeshBaseURL" value="http://invalid.server/tile?style=17" />
   <item key="USE_APPLE_HEIGHT_MESH" value="true" />
   <item key="C3_DigitalGlobeBaseURL" value="http://invalid.server/tile?style=7" />
   <item key="USE_APPLE_DG" value="true" />
   <item key="C3_HeightMeshExtension" value="dtm" />
</registry>
<triggers>
<trigger>
   <data type="c3mesh" metaurlformat="c3h" metaurl="bundle://poles/northpole/0/0/map_0_0_0.c3h" dataurl="bundle://poles/northpole/"/>
   <shape type="sphere" latitude="1.570796326" longitude="0" altitude="0.0" radius="600000"/>
   <c3meshdata level="0"/>
</trigger>
<trigger>
   <data type="c3mesh" metaurlformat="c3h" metaurl="bundle://poles/southpole/0/0/map_0_0_0.c3h" dataurl="bundle://poles/southpole/"/>
   <shape type="sphere" latitude="-1.570796326" longitude="0" altitude="0.0" radius="600000"/>
   <c3meshdata level="0"/>
</trigger>
  <trigger region="0" source="muid" type="tour">
<tour muid="4531368219218016530" region="3" trip_nr="1"/>
<tour muid="18267247705734155774" region="3" trip_nr="2"/>
<tour muid="12816273645922594547" region="3" trip_nr="4"/>
<tour muid="1252269331730788847" region="3" trip_nr="5"/>
<tour muid="17815381457770473724" region="3" trip_nr="7"/>
<tour muid="16118442400621678012" region="4" trip_nr="1"/>
<tour muid="18351802482921338004" region="5" trip_nr="1"/>
<tour muid="9827672953111667929" region="6" trip_nr="1"/>
<tour muid="17716882381624000226" region="7" trip_nr="1"/>
<tour muid="5156993033163333898" region="8" trip_nr="1"/>
<tour muid="3687881869269928947" region="8" trip_nr="3"/>
<tour muid="7363214711951792140" region="8" trip_nr="4"/>
<tour muid="826388732277615336" region="9" trip_nr="1"/>
<tour muid="13089913346109115933" region="10" trip_nr="1"/>
<tour muid="1555780455406929851" region="11" trip_nr="1"/>
<tour muid="10054958827085458304" region="12" trip_nr="1"/>
<tour muid="14312029616879295979" region="13" trip_nr="1"/>
<tour muid="12296432638622813584" region="14" trip_nr="1"/>
<tour muid="3440579616580864183" region="15" trip_nr="1"/>
<tour muid="12675902928086892573" region="18" trip_nr="1"/>
<tour muid="16203288942527217028" region="20" trip_nr="1"/>
<tour muid="939915697144155458" region="21" trip_nr="1"/>
<tour muid="10582673622727249855" region="22" trip_nr="1"/>
<tour muid="5925973303254515509" region="23" trip_nr="1"/>
<tour muid="5377375150887084436" region="24" trip_nr="1"/>
<tour muid="48812406309286022" region="25" trip_nr="1"/>
<tour muid="15943796160287482500" region="30" trip_nr="1"/>
<tour muid="7425715785066774029" region="31" trip_nr="1"/>
<tour muid="4111137726369867804" region="32" trip_nr="1"/>
<tour muid="838102623566003472" region="35" trip_nr="1"/>
<tour muid="1138584149477506247" region="36" trip_nr="1"/>
<tour muid="12941259929371403703" region="37" trip_nr="1"/>
<tour muid="8824590892442150586" region="38" trip_nr="1"/>
<tour muid="15824956338533968871" region="39" trip_nr="1"/>
<tour muid="17562417132368762792" region="40" trip_nr="1"/>
<tour muid="16982852142975855178" region="41" trip_nr="1"/>
<tour muid="7930616081523413639" region="42" trip_nr="1"/>
<tour muid="16056873924796211948" region="43" trip_nr="1"/>
<tour muid="10276109485276657318" region="44" trip_nr="1"/>
<tour muid="3350311536626935624" region="45" trip_nr="1"/>
<tour muid="7610876732946825007" region="46" trip_nr="1"/>
<tour muid="10819483050482422353" region="47" trip_nr="1"/>
<tour muid="263266650859038700" region="48" trip_nr="1"/>
<tour muid="7017433214542421879" region="50" trip_nr="1"/>
<tour muid="4322731065454946974" region="56" trip_nr="1"/>
<tour muid="14555664115510285332" region="60" trip_nr="1"/>
<tour muid="10217020895339422721" region="61" trip_nr="1"/>
<tour muid="4863379879225207845" region="64" trip_nr="1"/>
<tour muid="17533872310363701785" region="70" trip_nr="1"/>
<tour muid="7632174774306439728" region="76" trip_nr="1"/>
<tour muid="12832987102699356848" region="79" trip_nr="1"/>
<tour muid="17534611013500265927" region="84" trip_nr="1"/>
<tour muid="16665842614037863449" region="85" trip_nr="1"/>
<tour muid="14876705528545631813" region="89" trip_nr="1"/>
<tour muid="13766066201605095463" region="90" trip_nr="1"/>
<tour muid="11223442288798665119" region="91" trip_nr="1"/>
<tour muid="12559581092183205117" region="92" trip_nr="1"/>
<tour muid="10989441033118628785" region="93" trip_nr="1"/>
<tour muid="166748441558776196" region="94" trip_nr="1"/>
<tour muid="181241619967018963" region="98" trip_nr="1"/>
<tour muid="1201037006660368187" region="100" trip_nr="1"/>
<tour muid="3736367690346046006" region="101" trip_nr="1"/>
<tour muid="5982113603036670760" region="102" trip_nr="1"/>
<tour muid="11027662476521880776" region="112" trip_nr="1"/>
<tour muid="2836612203710945376" region="121" trip_nr="2"/>
<tour muid="1657240865468337132" region="123" trip_nr="1"/>
<tour muid="13593491077831154743" region="125" trip_nr="1"/>
<tour muid="6339979079197982280" region="126" trip_nr="1"/>
<tour muid="3593621544935888821" region="128" trip_nr="1"/>
<tour muid="13203738336442626179" region="130" trip_nr="1"/>
<tour muid="1254896392585842234" region="131" trip_nr="1"/>
<tour muid="17809396332536151873" region="132" trip_nr="1"/>
<tour muid="3805936806795206027" region="133" trip_nr="1"/>
<tour muid="27660252541371166" region="135" trip_nr="1"/>
<tour muid="3825137545888743813" region="136" trip_nr="1"/>
<tour muid="10243054557490427785" region="137" trip_nr="1"/>
<tour muid="9300771619197868012" region="138" trip_nr="1"/>
<tour muid="10426739477111840775" region="139" trip_nr="1"/>
<tour muid="479996818328362967" region="140" trip_nr="1"/>
<tour muid="10597376951450673405" region="142" trip_nr="1"/>
<tour muid="3862359936957195812" region="143" trip_nr="1"/>
<tour muid="1864426592993979936" region="146" trip_nr="1"/>
<tour muid="1783426121075392188" region="146" trip_nr="2"/>
<tour muid="4188381435873284301" region="146" trip_nr="3"/>
<tour muid="16947639284024502318" region="147" trip_nr="1"/>
<tour muid="8696757491618441500" region="148" trip_nr="1"/>
<tour muid="8723649770558302171" region="149" trip_nr="1"/>
<tour muid="6653038168936504289" region="150" trip_nr="1"/>
<tour muid="3023693721548392318" region="152" trip_nr="1"/>
<tour muid="15936499613849172010" region="153" trip_nr="1"/>
<tour muid="18166503836206534180" region="155" trip_nr="1"/>
<tour muid="5695414336077017831" region="156" trip_nr="1"/>
<tour muid="4026493169844397369" region="157" trip_nr="1"/>
<tour muid="11757842225833683258" region="161" trip_nr="1"/>
<tour muid="108878363312483308" region="162" trip_nr="1"/>
<tour muid="6822996247843383003" region="164" trip_nr="1"/>
<tour muid="7389299458915563065" region="166" trip_nr="1"/>
<tour muid="16378064303531491359" region="167" trip_nr="1"/>
<tour muid="5356750251419916376" region="168" trip_nr="1"/>
<tour muid="3042355984092737120" region="170" trip_nr="1"/>
<tour muid="15387457767204192270" region="172" trip_nr="1"/>
<tour muid="14334130669715821850" region="173" trip_nr="1"/>
<tour muid="15348567109487074083" region="176" trip_nr="2"/>
<tour muid="5415870432459090115" region="178" trip_nr="2"/>
<tour muid="8981903105627648706" region="179" trip_nr="1"/>
<tour muid="8549566100449150828" region="181" trip_nr="2"/>
<tour muid="5627635705415405204" region="183" trip_nr="1"/>
<tour muid="15051783534270808580" region="185" trip_nr="1"/>
<tour muid="17157451707140922115" region="186" trip_nr="1"/>
<tour muid="12547197178237557289" region="190" trip_nr="1"/>
<tour muid="4645410604957761465" region="196" trip_nr="1"/>
<tour muid="1550108269566654669" region="197" trip_nr="1"/>
<tour muid="15684075702847234165" region="202" trip_nr="1"/>
<tour muid="13917510473036574148" region="210" trip_nr="1"/>
<tour muid="15319878102305612304" region="214" trip_nr="1"/>
<tour muid="17340241788652778055" region="215" trip_nr="1"/>
<tour muid="5550958171262495753" region="217" trip_nr="1"/>
<tour muid="64781293886789942" region="218" trip_nr="1"/>
<tour muid="4474160571646378435" region="224" trip_nr="1"/>
<tour muid="14982767098915094410" region="226" trip_nr="1"/>
<tour muid="14346626633831640548" region="227" trip_nr="1"/>
<tour muid="11954645711863548461" region="228" trip_nr="1"/>
<tour muid="1917760255604844754" region="230" trip_nr="1"/>
<tour muid="7174127786053218176" region="231" trip_nr="1"/>
<tour muid="11490485547023050262" region="303" trip_nr="1"/>
<tour muid="10288935307443385648" region="307" trip_nr="1"/>
<tour muid="11437451221664086004" region="310" trip_nr="1"/>
<tour muid="8322740022098429141" region="316" trip_nr="1"/>
<tour muid="8812774966958307911" region="318" trip_nr="1"/>
<tour muid="978077699355992154" region="321" trip_nr="1"/>
<tour muid="1806782356378717978" region="325" trip_nr="1"/>
<tour muid="4492634398381644871" region="328" trip_nr="1"/>
<tour muid="547610148360095909" region="330" trip_nr="1"/>
<tour muid="16556679228086917043" region="333" trip_nr="1"/>
<tour muid="10627087003611190473" region="335" trip_nr="1"/>
<tour muid="582633321019861587" region="337" trip_nr="1"/>
<tour muid="7265977611784414889" region="338" trip_nr="1"/>
<tour muid="10009959424152459646" region="340" trip_nr="1"/>
<tour muid="17412664260382322216" region="346" trip_nr="1"/>
<tour muid="8239314056883855385" region="347" trip_nr="1"/>
<tour muid="13771518806306306887" region="353" trip_nr="1"/>
<tour muid="82501360114008559" region="354" trip_nr="1"/>
<tour muid="14041607190315785392" region="355" trip_nr="1"/>
<tour muid="17435307972198885500" region="357" trip_nr="1"/>
<tour muid="5052193609128172787" region="360" trip_nr="1"/>
<tour muid="13680298566908653853" region="361" trip_nr="2"/>
<tour muid="17599667515828277377" region="362" trip_nr="1"/>
<tour muid="6190102315307023311" region="367" trip_nr="1"/>
<tour muid="14373099561496939138" region="369" trip_nr="1"/>
<tour muid="15614830348002797947" region="371" trip_nr="1"/>
<tour muid="9660704478308868104" region="372" trip_nr="1"/>
<tour muid="12078655853372449173" region="375" trip_nr="1"/>
<tour muid="15415848286461359788" region="376" trip_nr="1"/>
<tour muid="13950070109701896724" region="380" trip_nr="1"/>
<tour muid="8599589526738487816" region="387" trip_nr="1"/>
<tour muid="908026320369065846" region="390" trip_nr="1"/>
<tour muid="4907825406724247717" region="392" trip_nr="1"/>
<tour muid="12710632958545092958" region="393" trip_nr="1"/>
<tour muid="531955713081365847" region="396" trip_nr="1"/>
<tour muid="14197691933169113851" region="398" trip_nr="1"/>
<tour muid="5557408872625320118" region="399" trip_nr="2"/>
<tour muid="15041451746917232606" region="400" trip_nr="2"/>
<tour muid="14927954969167210429" region="401" trip_nr="1"/>
<tour muid="667552995761122057" region="403" trip_nr="2"/>
<tour muid="13450167078830067391" region="404" trip_nr="2"/>
<tour muid="1999266205532059561" region="405" trip_nr="2"/>
<tour muid="14411146948764821426" region="406" trip_nr="2"/>
<tour muid="8681440808912264921" region="603" trip_nr="2"/>
<tour muid="5161046090556624916" region="607" trip_nr="1"/>
<tour muid="16900700893249087509" region="608" trip_nr="1"/>
<tour muid="10797775320496507179" region="610" trip_nr="1"/>
<tour muid="1686134952642924784" region="611" trip_nr="1"/>
<tour muid="10826018148708172650" region="612" trip_nr="1"/>
<tour muid="8091591328533552145" region="619" trip_nr="1"/>
<tour muid="13961666218927713520" region="620" trip_nr="1"/>
<tour muid="9897313056412695334" region="622" trip_nr="1"/>
</trigger>
<trigger altitude="584.7" latitude="0.801426342975" level="13" longitude="0.106929166827" max_level="20" maxsize_13="64768" maxsize_14="86266" maxsize_15="146802" maxsize_16="138189" maxsize_17="130477" maxsize_18="132128" maxsize_19="139756" maxsize_20="137149" name="San Francisco" priority="0" radius="13597.5" region="1" version="2016" />
<trigger altitude="-6418.4" latitude="0.591813106024" level="13" longitude="-2.059783406982" max_level="20" maxsize_13="105069" maxsize_14="145664" maxsize_15="152200" maxsize_16="163460" maxsize_17="217443" maxsize_18="169076" maxsize_19="149620" maxsize_20="179032" name="Los Angeles" priority="0" radius="101474.9" region="3" version="2014" />
<trigger altitude="2037.6" latitude="-0.590931509500" level="13" longitude="2.636820288454" max_level="20" maxsize_13="214437" maxsize_14="197215" maxsize_15="162193" maxsize_16="169128" maxsize_17="194700" maxsize_18="160100" maxsize_19="158656" maxsize_20="156587" name="Sydney" priority="0" radius="34799.7" region="4" version="2012" />
<trigger altitude="-65.3" latitude="0.795022649117" level="13" longitude="-1.285780624219" max_level="20" maxsize_13="130882" maxsize_14="153034" maxsize_15="147585" maxsize_16="149853" maxsize_17="168928" maxsize_18="150924" maxsize_19="150151" maxsize_20="126292" name="Montreal" priority="0" radius="48187.7" region="5" version="2046" />
<trigger altitude="-627.6" latitude="0.673760027882" level="13" longitude="-2.119336533374" max_level="20" maxsize_13="76337" maxsize_14="149291" maxsize_15="157420" maxsize_16="166719" maxsize_17="150652" maxsize_18="142667" maxsize_19="136355" maxsize_20="124280" name="Sacramento" priority="0" radius="26955.0" region="6" version="2002" />
<trigger altitude="3279.1" latitude="0.828944857415" level="13" longitude="-2.135364628729" max_level="20" maxsize_13="139427" maxsize_14="178282" maxsize_15="164270" maxsize_16="168060" maxsize_17="241633" maxsize_18="199251" maxsize_19="174220" maxsize_20="178799" name="Seattle" priority="0" radius="66769.2" region="7" version="2010" />
<trigger altitude="-1259.6" latitude="0.452373135551" level="13" longitude="-1.401249104079" max_level="20" maxsize_13="106287" maxsize_14="149344" maxsize_15="155958" maxsize_16="160451" maxsize_17="162258" maxsize_18="166219" maxsize_19="170983" maxsize_20="175929" name="Miami" priority="0" radius="87828.0" region="8" version="2010" />
<trigger altitude="3032.0" latitude="0.629503562593" level="13" longitude="-2.007339375563" max_level="20" maxsize_13="128346" maxsize_14="126492" maxsize_15="143410" maxsize_16="157016" maxsize_17="176211" maxsize_18="162251" maxsize_19="162751" maxsize_20="144042" name="Las Vegas" priority="0" radius="56410.2" region="9" version="2008" />
<trigger altitude="1650.0" latitude="-0.660527088992" level="13" longitude="2.531027285138" max_level="20" maxsize_13="157045" maxsize_14="158385" maxsize_15="140534" maxsize_16="150929" maxsize_17="202333" maxsize_18="158716" maxsize_19="139253" maxsize_20="150794" name="Melbourne" priority="0" radius="35398.1" region="10" version="2026" />
<trigger altitude="359.9" latitude="0.731004901586" level="13" longitude="0.218587988871" max_level="20" maxsize_13="105010" maxsize_14="156561" maxsize_15="177311" maxsize_16="167744" maxsize_17="148665" maxsize_18="138174" maxsize_19="145209" maxsize_20="165695" name="rome" priority="0" radius="26135.7" region="11" version="2010" />
<trigger altitude="573.9" latitude="0.915650957226" level="13" longitude="0.234124581064" max_level="20" maxsize_13="96197" maxsize_14="132641" maxsize_15="161445" maxsize_16="152425" maxsize_17="199520" maxsize_18="156665" maxsize_19="138801" maxsize_20="134592" name="berlin" priority="0" radius="30433.8" region="12" version="2004" />
<trigger altitude="848.5" latitude="0.704738302640" level="13" longitude="-0.065224145025" max_level="20" maxsize_13="151265" maxsize_14="170505" maxsize_15="170723" maxsize_16="178705" maxsize_17="155747" maxsize_18="151540" maxsize_19="140393" maxsize_20="158144" name="madrid" priority="0" radius="24168.0" region="13" version="2011" />
<trigger altitude="-349.3" latitude="0.974180293929" level="13" longitude="0.216032251234" max_level="20" maxsize_13="47662" maxsize_14="85893" maxsize_15="134341" maxsize_16="129542" maxsize_17="126944" maxsize_18="123039" maxsize_19="129381" maxsize_20="129446" name="Copenhagen" priority="0" radius="41831.2" region="14" version="2007" />
<trigger altitude="448.9" latitude="1.035234790575" level="13" longitude="0.314565796935" max_level="20" maxsize_13="58676" maxsize_14="126164" maxsize_15="105467" maxsize_16="119378" maxsize_17="141420" maxsize_18="125987" maxsize_19="139058" maxsize_20="125616" name="stockholm" priority="0" radius="36326.0" region="15" version="2013" />
<trigger altitude="-76.3" latitude="0.522476793703" level="13" longitude="-1.573098027433" max_level="20" maxsize_13="209217" maxsize_14="226657" maxsize_15="191443" maxsize_16="181445" maxsize_17="189920" maxsize_18="181253" maxsize_19="184373" maxsize_20="157432" name="New Orleans" priority="0" radius="35383.6" region="18" version="2004" />
<trigger altitude="-243.4" latitude="0.519499707495" level="13" longitude="-1.664045360649" max_level="20" maxsize_13="132900" maxsize_14="162893" maxsize_15="172599" maxsize_16="168373" maxsize_17="175600" maxsize_18="165966" maxsize_19="185156" maxsize_20="177978" name="houston" priority="0" radius="32632.8" region="20" version="2016" />
<trigger altitude="-167.8" latitude="0.584174062802" level="13" longitude="-1.954198121724" max_level="20" maxsize_13="88470" maxsize_14="100269" maxsize_15="120758" maxsize_16="150042" maxsize_17="166160" maxsize_18="153817" maxsize_19="151629" maxsize_20="147209" name="phoenix_heli" priority="0" radius="44915.9" region="21" version="2008" />
<trigger altitude="-5898.8" latitude="0.572790320508" level="13" longitude="-2.041603249013" max_level="20" maxsize_13="96024" maxsize_14="119811" maxsize_15="145941" maxsize_16="156247" maxsize_17="240153" maxsize_18="185202" maxsize_19="155891" maxsize_20="153836" name="san_diego" priority="0" radius="73061.1" region="22" version="2011" />
<trigger altitude="337.8" latitude="0.589849530780" level="13" longitude="-1.472623781677" max_level="20" maxsize_13="160242" maxsize_14="187928" maxsize_15="181661" maxsize_16="173437" maxsize_17="203232" maxsize_18="158644" maxsize_19="168455" maxsize_20="155240" name="atlanta" priority="0" radius="24111.6" region="23" version="2018" />
<trigger altitude="-45.4" latitude="0.612643378824" level="13" longitude="-1.569642268635" max_level="20" maxsize_13="198442" maxsize_14="242576" maxsize_15="191739" maxsize_16="176182" maxsize_17="170156" maxsize_18="157333" maxsize_19="155628" maxsize_20="145969" name="memphis" priority="0" radius="38568.5" region="24" version="2007" />
<trigger altitude="1407.4" latitude="0.694828721091" level="13" longitude="-1.832417330774" max_level="20" maxsize_13="62499" maxsize_14="122249" maxsize_15="151868" maxsize_16="160352" maxsize_17="145193" maxsize_18="142756" maxsize_19="142973" maxsize_20="140229" name="denver" priority="0" radius="46407.7" region="25" version="2002" />
<trigger altitude="2090.2" latitude="0.375002985212" level="13" longitude="-2.756931412047" max_level="20" maxsize_13="123650" maxsize_14="143663" maxsize_15="149176" maxsize_16="155972" maxsize_17="193664" maxsize_18="184619" maxsize_19="164597" maxsize_20="185470" name="honolulu" priority="0" radius="44879.5" region="26" version="2004" />
<trigger altitude="94.5" latitude="0.666166074901" level="13" longitude="-0.014217190095" max_level="20" maxsize_13="82033" maxsize_14="169624" maxsize_15="170533" maxsize_16="164931" maxsize_17="187090" maxsize_18="158219" maxsize_19="156444" maxsize_20="189565" name="Murica" priority="0" radius="61703.7" region="27" version="2008" />
<trigger altitude="168.5" latitude="0.907521262178" level="13" longitude="0.149040603437" max_level="20" maxsize_13="71640" maxsize_14="77869" maxsize_15="116982" maxsize_16="119997" maxsize_17="148641" maxsize_18="114600" maxsize_19="111660" maxsize_20="117998" name="Bielefeld" priority="0" radius="14762.9" region="28" version="2015" />
<trigger altitude="938.3" latitude="0.571838169320" level="13" longitude="-1.694234831714" max_level="20" maxsize_13="95801" maxsize_14="146263" maxsize_15="151327" maxsize_16="157336" maxsize_17="139302" maxsize_18="129913" maxsize_19="125704" maxsize_20="147886" name="dallas" priority="0" radius="30280.6" region="29" version="2001" />
<trigger altitude="2.8" latitude="0.898503671165" level="13" longitude="-0.001932373931" max_level="20" maxsize_13="66462" maxsize_14="129717" maxsize_15="145963" maxsize_16="135091" maxsize_17="152710" maxsize_18="126399" maxsize_19="138434" maxsize_20="151913" name="london" priority="0" radius="40108.5" region="30" version="2023" />
<trigger altitude="545.6" latitude="0.798468861606" level="13" longitude="0.085517495949" max_level="20" maxsize_13="66215" maxsize_14="147973" maxsize_15="147294" maxsize_16="147198" maxsize_17="134738" maxsize_18="125509" maxsize_19="145737" maxsize_20="154814" name="lyon" priority="0" radius="27434.4" region="31" version="2005" />
<trigger altitude="-651.7" latitude="0.840292301707" level="13" longitude="0.200162670414" max_level="20" maxsize_13="106344" maxsize_14="142067" maxsize_15="150237" maxsize_16="141902" maxsize_17="161674" maxsize_18="133197" maxsize_19="132228" maxsize_20="150808" name="munich" priority="0" radius="35057.1" region="32" version="2011" />
<trigger altitude="-1083.6" latitude="0.738650186680" level="13" longitude="-1.531865832311" max_level="20" maxsize_13="133341" maxsize_14="158779" maxsize_15="172154" maxsize_16="169795" maxsize_17="282170" maxsize_18="182259" maxsize_19="167258" maxsize_20="153692" name="Chicago-Milwaukee" priority="0" radius="128295.0" region="33" version="2001" />
<trigger altitude="86.1" latitude="0.528120437157" level="13" longitude="-1.705378763733" max_level="20" maxsize_13="91384" maxsize_14="125061" maxsize_15="144702" maxsize_16="161310" maxsize_17="187045" maxsize_18="154527" maxsize_19="148375" maxsize_20="164214" name="austin" priority="0" radius="23270.9" region="35" version="2005" />
<trigger altitude="142.6" latitude="0.723613871067" level="13" longitude="0.038720004237" max_level="20" maxsize_13="115849" maxsize_14="158556" maxsize_15="174258" maxsize_16="164902" maxsize_17="153031" maxsize_18="152199" maxsize_19="151082" maxsize_20="169977" name="barcelona" priority="0" radius="29445.2" region="36" version="2004" />
<trigger altitude="370.3" latitude="0.794733969635" level="13" longitude="0.160336416058" max_level="20" maxsize_13="83014" maxsize_14="170486" maxsize_15="163692" maxsize_16="163113" maxsize_17="202563" maxsize_18="138765" maxsize_19="137053" maxsize_20="146360" name="milan" priority="0" radius="29224.3" region="37" version="2034" />
<trigger altitude="1198.6" latitude="0.710701768171" level="13" longitude="-1.290747199280" max_level="20" maxsize_13="142479" maxsize_14="162083" maxsize_15="176376" maxsize_16="178531" maxsize_17="148619" maxsize_18="146539" maxsize_19="150854" maxsize_20="160853" name="new_york" priority="0" radius="44942.8" region="38" version="2001" />
<trigger altitude="-2184.9" latitude="0.740158281419" level="13" longitude="-1.240082372273" max_level="20" maxsize_13="88690" maxsize_14="157860" maxsize_15="162929" maxsize_16="172192" maxsize_17="220776" maxsize_18="159765" maxsize_19="163817" maxsize_20="156670" name="boston" priority="0" radius="35462.9" region="39" version="2006" />
<trigger altitude="44.0" latitude="0.890775582536" level="13" longitude="-1.990353853173" max_level="20" maxsize_13="63531" maxsize_14="116960" maxsize_15="111514" maxsize_16="123186" maxsize_17="157858" maxsize_18="136366" maxsize_19="139572" maxsize_20="144626" name="calgary" priority="0" radius="27944.5" region="40" version="2012" />
<trigger altitude="1299.4" latitude="0.697840766203" level="13" longitude="-1.311328722672" max_level="20" maxsize_13="99628" maxsize_14="164603" maxsize_15="177177" maxsize_16="166308" maxsize_17="182444" maxsize_18="161560" maxsize_19="164677" maxsize_20="166220" name="philadelphia" priority="0" radius="36205.1" region="41" version="2041" />
<trigger altitude="2686.4" latitude="0.794870830440" level="13" longitude="-2.140478593530" max_level="20" maxsize_13="87694" maxsize_14="138610" maxsize_15="159909" maxsize_16="156458" maxsize_17="198566" maxsize_18="164948" maxsize_19="160287" maxsize_20="150057" name="portland" priority="0" radius="33139.5" region="42" version="2004" />
<trigger altitude="-347.9" latitude="0.764273552072" level="13" longitude="-1.382172813788" max_level="20" maxsize_13="87127" maxsize_14="155145" maxsize_15="158869" maxsize_16="160012" maxsize_17="227095" maxsize_18="165805" maxsize_19="168855" maxsize_20="177868" name="toronto" priority="0" radius="67778.8" region="43" version="2005" />
<trigger altitude="-512.4" latitude="0.859306912995" level="13" longitude="-2.146782929759" max_level="20" maxsize_13="73820" maxsize_14="128637" maxsize_15="149760" maxsize_16="153293" maxsize_17="145091" maxsize_18="146926" maxsize_19="148263" maxsize_20="171607" name="vancouver" priority="0" radius="33353.6" region="44" version="2003" />
<trigger altitude="73.9" latitude="0.916450166998" level="13" longitude="-0.034141500622" max_level="20" maxsize_13="52348" maxsize_14="76217" maxsize_15="109168" maxsize_16="125412" maxsize_17="124804" maxsize_18="126796" maxsize_19="130031" maxsize_20="142899" name="birmingham" priority="0" radius="26783.5" region="45" version="2004" />
<trigger altitude="224.7" latitude="0.930529759756" level="13" longitude="-0.110051873319" max_level="20" maxsize_13="54110" maxsize_14="77628" maxsize_15="100500" maxsize_16="111807" maxsize_17="118267" maxsize_18="116188" maxsize_19="128592" maxsize_20="131414" name="dublin" priority="0" radius="21451.1" region="46" version="2006" />
<trigger altitude="-298.1" latitude="0.934489223181" level="13" longitude="-0.044956617686" max_level="20" maxsize_13="53953" maxsize_14="76305" maxsize_15="117820" maxsize_16="127932" maxsize_17="123695" maxsize_18="121645" maxsize_19="139324" maxsize_20="139762" name="manchester" priority="0" radius="51082.6" region="47" version="2006" />
<trigger altitude="567.3" latitude="0.853003261679" level="13" longitude="0.042202007999" max_level="20" maxsize_13="83303" maxsize_14="150687" maxsize_15="160717" maxsize_16="156149" maxsize_17="159749" maxsize_18="157477" maxsize_19="145071" maxsize_20="157954" name="paris" priority="0" radius="38611.4" region="48" version="2003" />
<trigger altitude="700.5" latitude="0.621945123740" level="13" longitude="2.439364302394" max_level="20" maxsize_13="147314" maxsize_14="184053" maxsize_15="185057" maxsize_16="168447" maxsize_17="226395" maxsize_18="156249" maxsize_19="138313" maxsize_20="137839" name="Tokyo" priority="0" radius="22516.9" region="50" version="2009" />
<trigger altitude="172.3" latitude="0.631034331355" level="13" longitude="-1.675107485325" max_level="20" maxsize_13="91355" maxsize_14="109200" maxsize_15="149210" maxsize_16="155763" maxsize_17="168332" maxsize_18="142161" maxsize_19="139295" maxsize_20="137567" name="tulsa" priority="0" radius="10552.4" region="56" version="2009" />
<trigger altitude="97.8" latitude="0.749164614388" level="13" longitude="-1.376356080238" max_level="20" maxsize_13="70179" maxsize_14="109114" maxsize_15="143891" maxsize_16="159843" maxsize_17="137217" maxsize_18="147077" maxsize_19="165482" maxsize_20="178001" name="buffalo" priority="0" radius="25252.9" region="57" version="2001" />
<trigger altitude="28.4" latitude="0.693909690117" level="13" longitude="-1.504416994274" max_level="20" maxsize_13="77645" maxsize_14="143276" maxsize_15="155262" maxsize_16="146462" maxsize_17="152205" maxsize_18="147251" maxsize_19="145260" maxsize_20="136595" name="indianapolis" priority="0" radius="22024.6" region="60" version="2003" />
<trigger altitude="-290.5" latitude="0.784585648633" level="13" longitude="-1.626050887073" max_level="20" maxsize_13="78964" maxsize_14="114205" maxsize_15="149229" maxsize_16="155288" maxsize_17="173882" maxsize_18="137801" maxsize_19="143724" maxsize_20="141514" name="minneapolis" priority="0" radius="23830.0" region="61" version="2008" />
<trigger altitude="81.1" latitude="0.974778064685" level="13" longitude="-0.074402599970" max_level="20" maxsize_13="61430" maxsize_14="99513" maxsize_15="118610" maxsize_16="107205" maxsize_17="115876" maxsize_18="125172" maxsize_19="122030" maxsize_20="134820" name="glasgow" priority="0" radius="14530.4" region="64" version="2008" />
<trigger altitude="891.7" latitude="0.685505634473" level="13" longitude="-1.336093248536" max_level="20" maxsize_13="106297" maxsize_14="146131" maxsize_15="163973" maxsize_16="167209" maxsize_17="145802" maxsize_18="155597" maxsize_19="162624" maxsize_20="145650" name="baltimore" priority="0" radius="21758.4" region="70" version="2004" />
<trigger altitude="-177.3" latitude="0.888955601765" level="13" longitude="0.121546470921" max_level="20" maxsize_13="159516" maxsize_14="169738" maxsize_15="162743" maxsize_16="143634" maxsize_17="242268" maxsize_18="150309" maxsize_19="140184" maxsize_20="130256" name="cologne" priority="0" radius="19198.7" region="76" version="2005" />
<trigger altitude="-25.1" latitude="0.688294694315" level="13" longitude="-0.006906318128" max_level="20" maxsize_13="80724" maxsize_14="175587" maxsize_15="181081" maxsize_16="172920" maxsize_17="161283" maxsize_18="156886" maxsize_19="160508" maxsize_20="177369" name="Valencia" priority="0" radius="19053.0" region="79" version="2001" />
<trigger altitude="196.7" latitude="0.514486300091" level="13" longitude="-1.718860087409" max_level="20" maxsize_13="87334" maxsize_14="128959" maxsize_15="146202" maxsize_16="157977" maxsize_17="138109" maxsize_18="136928" maxsize_19="132782" maxsize_20="147325" name="san_antonio" priority="0" radius="40456.7" region="84" version="2001" />
<trigger altitude="-77.3" latitude="0.631048342433" level="13" longitude="-1.513176206777" max_level="20" maxsize_13="98270" maxsize_14="148794" maxsize_15="166292" maxsize_16="179166" maxsize_17="185106" maxsize_18="180328" maxsize_19="177322" maxsize_20="151796" name="nashville" priority="0" radius="32723.2" region="85" version="2007" />
<trigger altitude="-16.3" latitude="0.730191017000" level="13" longitude="-1.246357468436" max_level="20" maxsize_13="123567" maxsize_14="98490" maxsize_15="136647" maxsize_16="157072" maxsize_17="181341" maxsize_18="144629" maxsize_19="146631" maxsize_20="142334" name="providence" priority="0" radius="12341.1" region="89" version="2002" />
<trigger altitude="-320.6" latitude="0.662884759239" level="13" longitude="-2.116789593977" max_level="20" maxsize_13="61852" maxsize_14="73355" maxsize_15="130894" maxsize_16="142808" maxsize_17="149403" maxsize_18="171358" maxsize_19="156663" maxsize_20="138637" name="stockton" priority="0" radius="21039.3" region="90" version="2002" />
<trigger altitude="79.6" latitude="0.762273333129" level="13" longitude="-1.226715039118" max_level="20" maxsize_13="76699" maxsize_14="107662" maxsize_15="146792" maxsize_16="156262" maxsize_17="154967" maxsize_18="155880" maxsize_19="163260" maxsize_20="150102" name="portland_me" priority="0" radius="16396.0" region="91" version="2002" />
<trigger altitude="-1153.3" latitude="0.657232019799" level="13" longitude="-2.111447651353" max_level="20" maxsize_13="72991" maxsize_14="77754" maxsize_15="151138" maxsize_16="147567" maxsize_17="169948" maxsize_18="169148" maxsize_19="159832" maxsize_20="144765" name="modesto" priority="0" radius="18455.1" region="92" version="2004" />
<trigger altitude="196.9" latitude="0.776598032313" level="13" longitude="-1.536306255281" max_level="20" maxsize_13="68646" maxsize_14="78347" maxsize_15="141952" maxsize_16="150265" maxsize_17="151248" maxsize_18="143866" maxsize_19="152105" maxsize_20="131891" name="greenbay" priority="0" radius="20104.8" region="93" version="2003" />
<trigger altitude="-70.1" latitude="0.723898264356" level="13" longitude="-1.426484843081" max_level="20" maxsize_13="103649" maxsize_14="146143" maxsize_15="160626" maxsize_16="175506" maxsize_17="186776" maxsize_18="147181" maxsize_19="147475" maxsize_20="153103" name="cleveland" priority="0" radius="24915.6" region="94" version="2005" />
<trigger altitude="-456.0" latitude="0.746133491223" level="13" longitude="-1.288576606014" max_level="20" maxsize_13="210855" maxsize_14="246558" maxsize_15="170979" maxsize_16="157963" maxsize_17="178329" maxsize_18="156886" maxsize_19="169180" maxsize_20="169221" name="albany" priority="0" radius="28276.5" region="95" version="2002" />
<trigger altitude="-335.8" latitude="-0.643391471386" level="13" longitude="3.052573671906" max_level="20" maxsize_13="63137" maxsize_14="142764" maxsize_15="159176" maxsize_16="162699" maxsize_17="149643" maxsize_18="153976" maxsize_19="148915" maxsize_20="171407" name="auckland" priority="0" radius="38442.5" region="98" version="2001" />
<trigger altitude="266.0" latitude="-0.719518508547" level="13" longitude="3.051801765456" max_level="20" maxsize_13="80430" maxsize_14="104430" maxsize_15="137191" maxsize_16="142585" maxsize_17="174050" maxsize_18="170919" maxsize_19="169686" maxsize_20="173982" name="wellington" priority="0" radius="33196.2" region="100" version="2011" />
<trigger altitude="-206.7" latitude="0.617055610537" level="13" longitude="-2.078073642587" max_level="20" maxsize_13="76229" maxsize_14="78364" maxsize_15="104852" maxsize_16="136528" maxsize_17="152272" maxsize_18="159407" maxsize_19="136371" maxsize_20="121519" name="bakersfield" priority="0" radius="23817.1" region="101" version="2006" />
<trigger altitude="-1289.0" latitude="0.642288410317" level="13" longitude="-2.090230459653" max_level="20" maxsize_13="63577" maxsize_14="74022" maxsize_15="124420" maxsize_16="149200" maxsize_17="190758" maxsize_18="159712" maxsize_19="146720" maxsize_20="128901" name="fresno" priority="0" radius="27759.9" region="102" version="2003" />
<trigger altitude="2274.1" latitude="-0.594696803585" level="13" longitude="0.323648019447" max_level="20" maxsize_13="82488" maxsize_14="117625" maxsize_15="152092" maxsize_16="155981" maxsize_17="138747" maxsize_18="147596" maxsize_19="148669" maxsize_20="152026" name="cape town" priority="0" radius="51939.7" region="112" version="2001" />
<trigger altitude="883.3" latitude="0.784102362524" level="13" longitude="-2.147224976471" max_level="20" maxsize_13="81885" maxsize_14="91938" maxsize_15="137637" maxsize_16="140637" maxsize_17="156042" maxsize_18="153455" maxsize_19="150426" maxsize_20="172480" name="salem" priority="0" radius="20594.8" region="121" version="2002" />
<trigger altitude="-289.1" latitude="-0.759854107470" level="13" longitude="3.013173668461" max_level="20" maxsize_13="61529" maxsize_14="77056" maxsize_15="111830" maxsize_16="129000" maxsize_17="132926" maxsize_18="124300" maxsize_19="138401" maxsize_20="144010" name="Christchurch" priority="0" radius="21131.9" region="124" version="2001" />
<trigger altitude="54.9" latitude="1.019300698885" level="13" longitude="0.272283409838" max_level="20" maxsize_13="47130" maxsize_14="70710" maxsize_15="79902" maxsize_16="117462" maxsize_17="130038" maxsize_18="124297" maxsize_19="131274" maxsize_20="131679" name="Linkoping" priority="0" radius="10718.0" region="125" version="2008" />
<trigger altitude="-2627.1" latitude="-0.558571794760" level="13" longitude="2.021021100836" max_level="20" maxsize_13="80648" maxsize_14="133610" maxsize_15="152885" maxsize_16="173438" maxsize_17="148509" maxsize_18="156798" maxsize_19="154099" maxsize_20="154170" name="Perth" priority="0" radius="50515.0" region="126" version="2004" />
<trigger altitude="1919.7" latitude="0.765559173729" level="13" longitude="-1.806683105697" max_level="20" maxsize_13="64222" maxsize_14="85250" maxsize_15="147391" maxsize_16="153383" maxsize_17="161556" maxsize_18="184349" maxsize_19="175379" maxsize_20="160310" name="mount_rushmore" priority="0" radius="14869.9" region="127" version="2003" />
<trigger altitude="21.6" latitude="0.782879549103" level="13" longitude="-0.010748618960" max_level="20" maxsize_13="59142" maxsize_14="125101" maxsize_15="131385" maxsize_16="151620" maxsize_17="131139" maxsize_18="135116" maxsize_19="134258" maxsize_20="146212" name="Bordeaux" priority="0" radius="23558.8" region="128" version="2004" />
<trigger altitude="-254.0" latitude="0.630768448105" level="13" longitude="-0.094735389337" max_level="20" maxsize_13="77356" maxsize_14="104785" maxsize_15="149784" maxsize_16="155462" maxsize_17="145672" maxsize_18="139327" maxsize_19="135262" maxsize_20="140916" name="Gibraltar" priority="0" radius="16229.1" region="129" version="2005" />
<trigger altitude="1451.8" latitude="0.717602634134" level="13" longitude="-1.829235275886" max_level="20" maxsize_13="52273" maxsize_14="63312" maxsize_15="98777" maxsize_16="125294" maxsize_17="122094" maxsize_18="121246" maxsize_19="130025" maxsize_20="141243" name="Cheyenne" priority="0" radius="16751.7" region="130" version="2002" />
<trigger altitude="143.2" latitude="0.939221172909" level="13" longitude="-0.027230339502" max_level="20" maxsize_13="50572" maxsize_14="70955" maxsize_15="107570" maxsize_16="116402" maxsize_17="115704" maxsize_18="112573" maxsize_19="122960" maxsize_20="127903" name="Leeds" priority="0" radius="12735.6" region="131" version="2001" />
<trigger altitude="815.4" latitude="0.792879273178" level="13" longitude="0.076294963534" max_level="20" maxsize_13="80073" maxsize_14="151828" maxsize_15="158393" maxsize_16="171289" maxsize_17="164601" maxsize_18="168146" maxsize_19="181711" maxsize_20="198886" name="saint etienne" priority="0" radius="19034.5" region="132" version="2002" />
<trigger altitude="188.3" latitude="0.652209732714" level="13" longitude="-0.103952564007" max_level="20" maxsize_13="85757" maxsize_14="165559" maxsize_15="180537" maxsize_16="183946" maxsize_17="160999" maxsize_18="169429" maxsize_19="185110" maxsize_20="204008" name="sevilla" priority="0" radius="36101.4" region="133" version="2003" />
<trigger altitude="339.5" latitude="0.924531375624" level="13" longitude="-0.164883957063" max_level="20" maxsize_13="38928" maxsize_14="34710" maxsize_15="40843" maxsize_16="49770" maxsize_17="73433" maxsize_18="87549" maxsize_19="100565" maxsize_20="100024" name="cliffs of moher" priority="0" radius="10380.9" region="134" version="2001" />
<trigger altitude="-127.5" latitude="0.757042841627" level="13" longitude="0.093887920920" max_level="20" maxsize_13="78659" maxsize_14="154499" maxsize_15="163885" maxsize_16="152861" maxsize_17="149689" maxsize_18="136427" maxsize_19="141582" maxsize_20="143255" name="marseille" priority="0" radius="31325.0" region="135" version="2002" />
<trigger altitude="835.9" latitude="0.751926958363" level="13" longitude="0.216880033435" max_level="20" maxsize_13="76310" maxsize_14="143466" maxsize_15="160493" maxsize_16="158012" maxsize_17="142772" maxsize_18="142111" maxsize_19="146635" maxsize_20="155181" name="perugia" priority="0" radius="28489.7" region="136" version="2002" />
<trigger altitude="-482.5" latitude="0.760422361016" level="13" longitude="0.233591112300" max_level="20" maxsize_13="64290" maxsize_14="104451" maxsize_15="164670" maxsize_16="159816" maxsize_17="139279" maxsize_18="138727" maxsize_19="139437" maxsize_20="149872" name="Ancona" priority="0" radius="25808.8" region="137" version="2002" />
<trigger altitude="659.9" latitude="1.050819059125" level="13" longitude="0.434680808573" max_level="20" maxsize_13="51124" maxsize_14="79172" maxsize_15="74964" maxsize_16="105715" maxsize_17="129853" maxsize_18="118761" maxsize_19="122644" maxsize_20="112409" name="helsinki" priority="0" radius="28924.2" region="138" version="2002" />
<trigger altitude="-200.7" latitude="0.661110339133" level="13" longitude="-0.083616040130" max_level="20" maxsize_13="106020" maxsize_14="168360" maxsize_15="173754" maxsize_16="186001" maxsize_17="169748" maxsize_18="176668" maxsize_19="173528" maxsize_20="187854" name="cordoba" priority="0" radius="21328.4" region="139" version="2001" />
<trigger altitude="393.3" latitude="0.769461306791" level="13" longitude="0.052923810427" max_level="20" maxsize_13="162397" maxsize_14="148587" maxsize_15="131141" maxsize_16="145809" maxsize_17="138730" maxsize_18="122771" maxsize_19="124354" maxsize_20="125408" name="Millau" priority="0" radius="10389.3" region="140" version="2004" />
<trigger altitude="1444.0" latitude="0.605242387573" level="13" longitude="2.363769157966" max_level="20" maxsize_13="156408" maxsize_14="169948" maxsize_15="163005" maxsize_16="156055" maxsize_17="256848" maxsize_18="164698" maxsize_19="163671" maxsize_20="168585" name="Osaka" priority="0" radius="68706.7" region="142" version="2003" />
<trigger altitude="95.7" latitude="0.755050935293" level="13" longitude="0.115814674827" max_level="20" maxsize_13="78505" maxsize_14="78050" maxsize_15="118354" maxsize_16="142075" maxsize_17="135042" maxsize_18="134286" maxsize_19="132380" maxsize_20="148785" name="saint_tropez" priority="0" radius="8606.4" region="143" version="2001" />
<trigger altitude="-1489.7" latitude="0.649780626564" level="13" longitude="-1.971162977992" max_level="20" maxsize_13="119689" maxsize_14="122071" maxsize_15="130818" maxsize_16="152104" maxsize_17="240845" maxsize_18="206702" maxsize_19="175571" maxsize_20="6749" name="Zion" priority="0" radius="43522.3" region="144" version="2014" />
<trigger altitude="113.0" latitude="0.893488073754" level="13" longitude="-0.031073359987" max_level="20" maxsize_13="52336" maxsize_14="47678" maxsize_15="81144" maxsize_16="84191" maxsize_17="88658" maxsize_18="105430" maxsize_19="117372" maxsize_20="113736" name="stonehenge" priority="0" radius="9213.8" region="145" version="2002" />
<trigger altitude="1888.3" latitude="0.656509515698" level="13" longitude="-2.132687013984" max_level="20" maxsize_13="125833" maxsize_14="183903" maxsize_15="192679" maxsize_16="178890" maxsize_17="179132" maxsize_18="162377" maxsize_19="175282" maxsize_20="177582" name="Bay Area" priority="0" radius="68468.9" region="146" version="2107" />
<trigger altitude="590.1" latitude="0.716886037748" level="13" longitude="0.292718345052" max_level="20" maxsize_13="66017" maxsize_14="172807" maxsize_15="169259" maxsize_16="173908" maxsize_17="166891" maxsize_18="149653" maxsize_19="158891" maxsize_20="176210" name="bari" priority="0" radius="25179.1" region="147" version="2001" />
<trigger altitude="-44.2" latitude="0.530430346060" level="13" longitude="-1.588830683177" max_level="20" maxsize_13="174323" maxsize_14="206377" maxsize_15="167838" maxsize_16="176960" maxsize_17="206760" maxsize_18="173580" maxsize_19="170749" maxsize_20="152611" name="Baton Rouge" priority="0" radius="33011.4" region="148" version="2008" />
<trigger altitude="-213.9" latitude="0.952972048419" level="13" longitude="-0.103661916983" max_level="20" maxsize_13="47190" maxsize_14="59456" maxsize_15="75915" maxsize_16="101329" maxsize_17="110380" maxsize_18="115312" maxsize_19="121671" maxsize_20="126217" name="Belfast" priority="0" radius="20860.0" region="149" version="2003" />
<trigger altitude="735.6" latitude="0.760841376717" level="13" longitude="-2.032259622533" max_level="20" maxsize_13="57411" maxsize_14="75334" maxsize_15="125713" maxsize_16="150531" maxsize_17="140727" maxsize_18="132123" maxsize_19="138675" maxsize_20="152366" name="Boise" priority="0" radius="38879.6" region="150" version="2001" />
<trigger altitude="1817.3" latitude="0.829013445705" level="13" longitude="0.333839436673" max_level="20" maxsize_13="117435" maxsize_14="155856" maxsize_15="172944" maxsize_16="165766" maxsize_17="209632" maxsize_18="167936" maxsize_19="175116" maxsize_20="177799" name="Budapest" priority="0" radius="51271.7" region="152" version="2002" />
<trigger altitude="-220.5" latitude="-0.616188902470" level="13" longitude="2.602281322392" max_level="20" maxsize_13="85821" maxsize_14="113448" maxsize_15="144837" maxsize_16="143529" maxsize_17="165499" maxsize_18="146037" maxsize_19="148093" maxsize_20="169266" name="Canberra" priority="0" radius="29118.2" region="153" version="2004" />
<trigger altitude="49.8" latitude="0.904942720768" level="13" longitude="-0.146535576104" max_level="20" maxsize_13="55400" maxsize_14="59328" maxsize_15="78017" maxsize_16="119146" maxsize_17="124551" maxsize_18="130154" maxsize_19="129583" maxsize_20="129036" name="Cork" priority="0" radius="24610.7" region="155" version="2004" />
<trigger altitude="-31.0" latitude="-0.800395098192" level="13" longitude="2.976640302196" max_level="20" maxsize_13="63206" maxsize_14="69707" maxsize_15="108875" maxsize_16="139095" maxsize_17="169603" maxsize_18="158311" maxsize_19="162875" maxsize_20="163146" name="Dunedin" priority="0" radius="26144.3" region="156" version="2002" />
<trigger altitude="894.3" latitude="0.554662070967" level="13" longitude="-2.035590720324" max_level="20" maxsize_13="89630" maxsize_14="87146" maxsize_15="95969" maxsize_16="135366" maxsize_17="136260" maxsize_18="133706" maxsize_19="135271" maxsize_20="143400" name="Ensenada" priority="0" radius="27336.0" region="157" version="2001" />
<trigger altitude="40.7" latitude="0.760619209840" level="13" longitude="0.067498354010" max_level="20" maxsize_13="77002" maxsize_14="93475" maxsize_15="154966" maxsize_16="152816" maxsize_17="156270" maxsize_18="143605" maxsize_19="141490" maxsize_20="155786" name="Montpellier" priority="0" radius="23225.6" region="162" version="2001" />
<trigger altitude="302.3" latitude="-0.720694035393" level="13" longitude="3.022977447720" max_level="20" maxsize_13="78208" maxsize_14="95736" maxsize_15="123804" maxsize_16="147959" maxsize_17="167418" maxsize_18="172747" maxsize_19="184260" maxsize_20="203441" name="Nelson" priority="0" radius="21654.0" region="164" version="2018" />
<trigger altitude="-194.7" latitude="0.761541700104" level="13" longitude="0.125215709173" max_level="20" maxsize_13="78283" maxsize_14="144115" maxsize_15="160393" maxsize_16="153627" maxsize_17="199319" maxsize_18="171101" maxsize_19="160445" maxsize_20="168078" name="Nice" priority="0" radius="36818.3" region="166" version="2003" />
<trigger altitude="-38.8" latitude="0.764517694733" level="13" longitude="0.077026017722" max_level="20" maxsize_13="65179" maxsize_14="77143" maxsize_15="156267" maxsize_16="149380" maxsize_17="164269" maxsize_18="128172" maxsize_19="132725" maxsize_20="142769" name="Nimes" priority="0" radius="16842.7" region="167" version="2001" />
<trigger altitude="-301.5" latitude="0.619594394167" level="13" longitude="-1.701677458269" max_level="20" maxsize_13="68999" maxsize_14="96341" maxsize_15="130618" maxsize_16="150948" maxsize_17="199880" maxsize_18="155152" maxsize_19="145357" maxsize_20="140460" name="Oklahoma City" priority="0" radius="25149.1" region="168" version="2003" />
<trigger altitude="-162.5" latitude="0.531108350575" level="13" longitude="-1.522501300943" max_level="20" maxsize_13="99343" maxsize_14="128633" maxsize_15="155964" maxsize_16="164217" maxsize_17="167038" maxsize_18="154217" maxsize_19="156627" maxsize_20="156580" name="Pensacola" priority="0" radius="19851.4" region="169" version="2010" />
<trigger altitude="-332.7" latitude="0.905232987644" level="13" longitude="0.077447404809" max_level="20" maxsize_13="225873" maxsize_14="226192" maxsize_15="217452" maxsize_16="228590" maxsize_17="213108" maxsize_18="245726" maxsize_19="161134" maxsize_20="135429" name="Rotterdam" priority="0" radius="42913.2" region="170" version="2004" />
<trigger altitude="-2.7" latitude="0.674877194099" level="13" longitude="-1.576942384983" max_level="20" maxsize_13="152838" maxsize_14="169897" maxsize_15="160179" maxsize_16="160540" maxsize_17="182739" maxsize_18="159718" maxsize_19="152907" maxsize_20="167565" name="St Louis" priority="0" radius="42055.5" region="172" version="2008" />
<trigger altitude="-495.4" latitude="0.786229728952" level="13" longitude="0.133029763869" max_level="20" maxsize_13="82713" maxsize_14="163846" maxsize_15="160593" maxsize_16="156949" maxsize_17="181364" maxsize_18="147876" maxsize_19="161309" maxsize_20="164961" name="Torino" priority="0" radius="27473.0" region="173" version="2003" />
<trigger altitude="17.5" latitude="0.643072492697" level="13" longitude="-0.041802882120" max_level="20" maxsize_13="56502" maxsize_14="117073" maxsize_15="150221" maxsize_16="153885" maxsize_17="138995" maxsize_18="126065" maxsize_19="118701" maxsize_20="121148" name="Almeria" priority="0" radius="16038.1" region="176" version="2010" />
<trigger altitude="49.9" latitude="0.756445190882" level="13" longitude="0.056375837082" max_level="20" maxsize_13="53592" maxsize_14="89081" maxsize_15="148941" maxsize_16="153848" maxsize_17="142712" maxsize_18="130913" maxsize_19="128097" maxsize_20="147454" name="Beziers" priority="0" radius="13173.6" region="178" version="2003" />
<trigger altitude="56.0" latitude="0.759230096640" level="13" longitude="-0.026462343644" max_level="20" maxsize_13="71242" maxsize_14="120036" maxsize_15="138948" maxsize_16="145172" maxsize_17="139527" maxsize_18="125474" maxsize_19="126916" maxsize_20="138591" name="Biarritz" priority="0" radius="12742.0" region="179" version="2002" />
<trigger altitude="617.2" latitude="0.799260012269" level="13" longitude="0.054456394182" max_level="20" maxsize_13="64176" maxsize_14="79492" maxsize_15="148163" maxsize_16="141995" maxsize_17="143277" maxsize_18="137082" maxsize_19="146792" maxsize_20="162849" name="Clermont-Ferrand" priority="0" radius="24907.6" region="181" version="2002" />
<trigger altitude="637.3" latitude="0.820941480767" level="13" longitude="0.269957677884" max_level="20" maxsize_13="71300" maxsize_14="111039" maxsize_15="167797" maxsize_16="156551" maxsize_17="207425" maxsize_18="154151" maxsize_19="145315" maxsize_20="156312" name="Graz" priority="0" radius="18949.8" region="183" version="2001" />
<trigger altitude="976.0" latitude="0.842354974364" level="13" longitude="0.249291042018" max_level="20" maxsize_13="66476" maxsize_14="109424" maxsize_15="138027" maxsize_16="131439" maxsize_17="224142" maxsize_18="145312" maxsize_19="137080" maxsize_20="154274" name="Linz" priority="0" radius="18338.8" region="185" version="2003" />
<trigger altitude="-1240.5" latitude="0.613727148335" level="13" longitude="2.389637834745" max_level="20" maxsize_13="173671" maxsize_14="187300" maxsize_15="153991" maxsize_16="154792" maxsize_17="194943" maxsize_18="156700" maxsize_19="156907" maxsize_20="144285" name="Nagoya" priority="0" radius="38901.1" region="186" version="2027" />
<trigger altitude="-106.4" latitude="0.744968198890" level="13" longitude="0.051048495708" max_level="20" maxsize_13="69493" maxsize_14="71827" maxsize_15="147799" maxsize_16="148097" maxsize_17="143039" maxsize_18="135274" maxsize_19="130193" maxsize_20="143891" name="Perpignan" priority="0" radius="16949.2" region="190" version="2002" />
<trigger altitude="3598.5" latitude="0.658149793904" level="13" longitude="-2.088745377263" max_level="20" maxsize_13="143817" maxsize_14="178055" maxsize_15="175088" maxsize_16="160889" maxsize_17="299114" maxsize_18="182483" maxsize_19="161854" maxsize_20="60264" name="Yosemite" priority="0" radius="32697.0" region="195" version="2007" />
<trigger altitude="-468.5" latitude="0.436813579159" level="13" longitude="-1.351037272883" max_level="20" maxsize_13="72670" maxsize_14="77580" maxsize_15="117980" maxsize_16="135295" maxsize_17="143715" maxsize_18="145462" maxsize_19="158205" maxsize_20="179016" name="Nassau" priority="0" radius="23443.4" region="196" version="2004" />
<trigger altitude="133.2" latitude="-0.521466784249" level="13" longitude="0.541097047141" max_level="20" maxsize_13="146965" maxsize_14="128479" maxsize_15="147692" maxsize_16="164741" maxsize_17="157390" maxsize_18="164889" maxsize_19="183764" maxsize_20="185700" name="Durban" priority="0" radius="27292.4" region="197" version="2007" />
<trigger altitude="-327.4" latitude="0.705396198176" level="13" longitude="0.261952073187" max_level="20" maxsize_13="80403" maxsize_14="59517" maxsize_15="70284" maxsize_16="81033" maxsize_17="127002" maxsize_18="118662" maxsize_19="111173" maxsize_20="123160" name="Paestum" priority="0" radius="7554.4" region="198" version="2006" />
<trigger altitude="2546.6" latitude="0.674143361990" level="13" longitude="-1.912137826010" max_level="20" maxsize_13="103290" maxsize_14="134344" maxsize_15="131682" maxsize_16="132589" maxsize_17="160553" maxsize_18="151963" maxsize_19="166187" maxsize_20="149286" name="Arches" priority="0" radius="38347.7" region="200" version="2002" />
<trigger altitude="85.0" latitude="0.768922397107" level="13" longitude="0.084369224760" max_level="20" maxsize_13="38609" maxsize_14="63226" maxsize_15="55921" maxsize_16="109705" maxsize_17="123934" maxsize_18="116849" maxsize_19="118375" maxsize_20="134465" name="Chateauneuf du pape" priority="0" radius="5364.0" region="201" version="2001" />
<trigger altitude="107.7" latitude="0.831142776378" level="13" longitude="0.026461984615" max_level="20" maxsize_13="76055" maxsize_14="141541" maxsize_15="153212" maxsize_16="135617" maxsize_17="141300" maxsize_18="126213" maxsize_19="133556" maxsize_20="141153" name="chambord" priority="0" radius="7235.8" region="202" version="2007" />
<trigger altitude="19.0" latitude="0.766993700271" level="13" longitude="0.079384488374" max_level="20" maxsize_13="69229" maxsize_14="65741" maxsize_15="93835" maxsize_16="134834" maxsize_17="132357" maxsize_18="123968" maxsize_19="125853" maxsize_20="138168" name="remoulins" priority="0" radius="7987.0" region="203" version="2002" />
<trigger altitude="49.2" latitude="0.849052969231" level="13" longitude="-0.026462343897" max_level="20" maxsize_13="44860" maxsize_14="38323" maxsize_15="39445" maxsize_16="44587" maxsize_17="103719" maxsize_18="106590" maxsize_19="113099" maxsize_20="109694" name="Mont Saint Michel" priority="0" radius="9673.0" region="205" version="2002" />
<trigger altitude="1604.9" latitude="0.611388606466" level="13" longitude="-1.937417772739" max_level="20" maxsize_13="30415" maxsize_14="41016" maxsize_15="52788" maxsize_16="62709" maxsize_17="88160" maxsize_18="111676" maxsize_19="127938" maxsize_20="103849" name="meteor_crater" priority="0" radius="6800.3" region="206" version="2001" />
<trigger altitude="937.9" latitude="0.778299576225" level="13" longitude="-1.827353157709" max_level="20" maxsize_13="57473" maxsize_14="81829" maxsize_15="106149" maxsize_16="150771" maxsize_17="158732" maxsize_18="151143" maxsize_19="156398" maxsize_20="130005" name="Devils Tower" priority="0" radius="7231.7" region="207" version="2001" />
<trigger altitude="918.5" latitude="0.628600619007" level="13" longitude="-1.985777371304" max_level="20" maxsize_13="105810" maxsize_14="109855" maxsize_15="109994" maxsize_16="122943" maxsize_17="126847" maxsize_18="129138" maxsize_19="128823" maxsize_20="125283" name="grand canyon" priority="0" radius="18812.8" region="208" version="2003" />
<trigger altitude="-432.6" latitude="0.980249152952" level="13" longitude="0.177753872077" max_level="20" maxsize_13="45718" maxsize_14="63133" maxsize_15="73788" maxsize_16="107734" maxsize_17="105593" maxsize_18="106676" maxsize_19="115410" maxsize_20="117097" name="Aarhus" priority="0" radius="16636.2" region="210" version="2002" />
<trigger altitude="-83.7" latitude="0.614273271343" level="13" longitude="-1.777257091452" max_level="20" maxsize_13="70891" maxsize_14="67939" maxsize_15="93799" maxsize_16="151999" maxsize_17="142826" maxsize_18="127615" maxsize_19="126691" maxsize_20="126854" name="Amarillo" priority="0" radius="22585.5" region="214" version="2001" />
<trigger altitude="49.6" latitude="0.828293262077" level="13" longitude="-0.009591102004" max_level="20" maxsize_13="50133" maxsize_14="64136" maxsize_15="129381" maxsize_16="131520" maxsize_17="122114" maxsize_18="111778" maxsize_19="114683" maxsize_20="129408" name="Angers" priority="0" radius="18091.7" region="215" version="2004" />
<trigger altitude="-92.0" latitude="0.893253487784" level="13" longitude="0.077104420377" max_level="20" maxsize_13="58103" maxsize_14="98174" maxsize_15="124038" maxsize_16="130089" maxsize_17="140802" maxsize_18="112391" maxsize_19="116927" maxsize_20="125435" name="Antwerp" priority="0" radius="32206.5" region="216" version="2004" />
<trigger altitude="-1488.5" latitude="0.321520111562" level="13" longitude="-1.165489715194" max_level="20" maxsize_13="99805" maxsize_14="138516" maxsize_15="148047" maxsize_16="153339" maxsize_17="161126" maxsize_18="180981" maxsize_19="178187" maxsize_20="181899" name="Arecibo" priority="0" radius="17158.8" region="217" version="2004" />
<trigger altitude="127.5" latitude="0.830165205961" level="13" longitude="0.133739999191" max_level="20" maxsize_13="72665" maxsize_14="136014" maxsize_15="137190" maxsize_16="140574" maxsize_17="188887" maxsize_18="157952" maxsize_19="141422" maxsize_20="158788" name="Basle" priority="0" radius="25116.5" region="218" version="2003" />
<trigger altitude="-229.0" latitude="0.725083205449" level="13" longitude="-0.146895659728" max_level="20" maxsize_13="80950" maxsize_14="116174" maxsize_15="142760" maxsize_16="141389" maxsize_17="179358" maxsize_18="138268" maxsize_19="139210" maxsize_20="155158" name="Braga" priority="0" radius="15451.6" region="224" version="2003" />
<trigger altitude="938.5" latitude="0.858515551739" level="13" longitude="0.289941401905" max_level="20" maxsize_13="51918" maxsize_14="113748" maxsize_15="126872" maxsize_16="129260" maxsize_17="168583" maxsize_18="113006" maxsize_19="116066" maxsize_20="112773" name="Brno" priority="0" radius="19046.2" region="226" version="2006" />
<trigger altitude="0.5" latitude="0.887694340350" level="13" longitude="0.076680678122" max_level="20" maxsize_13="120503" maxsize_14="150153" maxsize_15="150508" maxsize_16="134703" maxsize_17="153977" maxsize_18="127400" maxsize_19="133090" maxsize_20="145614" name="Brussels" priority="0" radius="21501.9" region="227" version="2003" />
<trigger altitude="3.0" latitude="0.637819185110" level="13" longitude="-0.107044344606" max_level="20" maxsize_13="89382" maxsize_14="126068" maxsize_15="142701" maxsize_16="149553" maxsize_17="161158" maxsize_18="134587" maxsize_19="124334" maxsize_20="140417" name="Cadiz" priority="0" radius="34499.0" region="228" version="2018" />
<trigger altitude="148.5" latitude="0.701842627061" level="13" longitude="-0.147264510280" max_level="20" maxsize_13="103850" maxsize_14="112549" maxsize_15="155237" maxsize_16="149718" maxsize_17="149325" maxsize_18="139509" maxsize_19="150038" maxsize_20="158738" name="Coimbra" priority="0" radius="11664.6" region="230" version="2007" />
<trigger altitude="-371.7" latitude="1.005573730389" level="13" longitude="0.319235800763" max_level="20" maxsize_13="43028" maxsize_14="44934" maxsize_15="62454" maxsize_16="97731" maxsize_17="121791" maxsize_18="107759" maxsize_19="116112" maxsize_20="111290" name="Visby" priority="0" radius="15116.1" region="231" version="2004" />
<trigger altitude="-2365.5" latitude="0.739620066873" level="13" longitude="-1.454068050965" max_level="20" maxsize_13="76381" maxsize_14="119853" maxsize_15="153178" maxsize_16="153853" maxsize_17="292568" maxsize_18="230560" maxsize_19="181602" maxsize_20="210273" name="Detroit" priority="0" radius="65313.5" region="302" version="2002" />
<trigger altitude="239.9" latitude="0.825690281913" level="13" longitude="0.088566273709" max_level="20" maxsize_13="51457" maxsize_14="72976" maxsize_15="148033" maxsize_16="142800" maxsize_17="143892" maxsize_18="119009" maxsize_19="124004" maxsize_20="138259" name="Dijon" priority="0" radius="16216.5" region="303" version="2002" />
<trigger altitude="147.1" latitude="0.976477715836" level="13" longitude="-0.057142019323" max_level="20" maxsize_13="43037" maxsize_14="65851" maxsize_15="69215" maxsize_16="67167" maxsize_17="140653" maxsize_18="117250" maxsize_19="100814" maxsize_20="102105" name="Edinburgh" priority="0" radius="15374.3" region="307" version="2003" />
<trigger altitude="277.1" latitude="1.006858898360" level="13" longitude="0.208850922581" max_level="20" maxsize_13="76005" maxsize_14="80799" maxsize_15="117369" maxsize_16="128755" maxsize_17="179154" maxsize_18="157561" maxsize_19="139305" maxsize_20="143028" name="Gothenburg" priority="0" radius="32159.2" region="316" version="2002" />
<trigger altitude="1145.7" latitude="0.360125363026" level="13" longitude="-1.804806019300" max_level="20" maxsize_13="133963" maxsize_14="160237" maxsize_15="164187" maxsize_16="170032" maxsize_17="187864" maxsize_18="175734" maxsize_19="177586" maxsize_20="177966" name="Guadalajara" priority="0" radius="33627.4" region="318" version="2003" />
<trigger altitude="101.2" latitude="0.934420752557" level="13" longitude="0.174049415749" max_level="20" maxsize_13="69306" maxsize_14="140668" maxsize_15="143285" maxsize_16="137485" maxsize_17="148364" maxsize_18="134653" maxsize_19="131707" maxsize_20="123017" name="Hamburg" priority="0" radius="34275.9" region="321" version="2003" />
<trigger altitude="1183.2" latitude="0.599922412311" level="13" longitude="2.310959292220" max_level="20" maxsize_13="125914" maxsize_14="159188" maxsize_15="162239" maxsize_16="149924" maxsize_17="183991" maxsize_18="184281" maxsize_19="191900" maxsize_20="184434" name="Hiroshima" priority="0" radius="29490.9" region="325" version="2053" />
<trigger altitude="502.8" latitude="0.855280500338" level="13" longitude="0.146517969157" max_level="20" maxsize_13="66143" maxsize_14="107362" maxsize_15="138882" maxsize_16="141376" maxsize_17="154770" maxsize_18="133402" maxsize_19="129381" maxsize_20="135715" name="Karlsruhe" priority="0" radius="23128.4" region="328" version="2021" />
<trigger altitude="-275.3" latitude="0.948723386184" level="13" longitude="0.177476508540" max_level="20" maxsize_13="44504" maxsize_14="67215" maxsize_15="102459" maxsize_16="125588" maxsize_17="121889" maxsize_18="115604" maxsize_19="123090" maxsize_20="124914" name="Kiel" priority="0" radius="19693.6" region="330" version="2008" />
<trigger altitude="886.6" latitude="0.743539181511" level="13" longitude="-0.097746549874" max_level="20" maxsize_13="63483" maxsize_14="134495" maxsize_15="149752" maxsize_16="136438" maxsize_17="134090" maxsize_18="134224" maxsize_19="150136" maxsize_20="159463" name="Leon" priority="0" radius="21552.6" region="331" version="2003" />
<trigger altitude="162.1" latitude="0.751416864155" level="13" longitude="-0.132243640425" max_level="20" maxsize_13="66297" maxsize_14="106947" maxsize_15="148023" maxsize_16="138004" maxsize_17="135486" maxsize_18="126072" maxsize_19="139463" maxsize_20="152653" name="Lugo" priority="0" radius="16152.6" region="335" version="2001" />
<trigger altitude="-558.3" latitude="0.971023647250" level="13" longitude="0.226942438660" max_level="20" maxsize_13="89717" maxsize_14="110089" maxsize_15="87773" maxsize_16="109396" maxsize_17="104145" maxsize_18="101825" maxsize_19="114623" maxsize_20="118847" name="Malmo" priority="0" radius="24420.8" region="337" version="2006" />
<trigger altitude="-857.1" latitude="0.862549729727" level="13" longitude="0.148816088552" max_level="20" maxsize_13="65629" maxsize_14="115239" maxsize_15="146111" maxsize_16="141944" maxsize_17="171885" maxsize_18="130172" maxsize_19="134867" maxsize_20="146005" name="Mannheim" priority="0" radius="26334.9" region="338" version="2007" />
<trigger altitude="-1285.2" latitude="0.319311083003" level="13" longitude="-1.172435591369" max_level="20" maxsize_13="94591" maxsize_14="123009" maxsize_15="145352" maxsize_16="158941" maxsize_17="182403" maxsize_18="169563" maxsize_19="184056" maxsize_20="186863" name="Mayaguez" priority="0" radius="34782.9" region="340" version="2002" />
<trigger altitude="603.2" latitude="0.966632312301" level="13" longitude="0.181399081097" max_level="20" maxsize_13="45248" maxsize_14="54273" maxsize_15="82128" maxsize_16="106988" maxsize_17="100146" maxsize_18="104750" maxsize_19="120869" maxsize_20="114550" name="Odense" priority="0" radius="14416.3" region="346" version="2001" />
<trigger altitude="-1378.3" latitude="0.603348918549" level="13" longitude="2.336532244771" max_level="20" maxsize_13="91949" maxsize_14="132784" maxsize_15="149473" maxsize_16="157577" maxsize_17="152052" maxsize_18="159356" maxsize_19="160093" maxsize_20="188420" name="Okayama" priority="0" radius="35683.8" region="347" version="2014" />
<trigger altitude="646.8" latitude="0.746651756097" level="13" longitude="-0.028373159792" max_level="20" maxsize_13="66338" maxsize_14="130082" maxsize_15="142822" maxsize_16="143018" maxsize_17="145581" maxsize_18="138331" maxsize_19="147402" maxsize_20="163313" name="Pamplona" priority="0" radius="20548.0" region="352" version="2002" />
<trigger altitude="-447.8" latitude="0.781603619470" level="13" longitude="0.180506451545" max_level="20" maxsize_13="63037" maxsize_14="89164" maxsize_15="161224" maxsize_16="155516" maxsize_17="136202" maxsize_18="135185" maxsize_19="126413" maxsize_20="138959" name="Parma" priority="0" radius="16535.7" region="353" version="2002" />
<trigger altitude="671.8" latitude="0.314486841611" level="13" longitude="-1.162376792093" max_level="20" maxsize_13="84276" maxsize_14="118794" maxsize_15="153208" maxsize_16="165671" maxsize_17="193342" maxsize_18="168607" maxsize_19="179929" maxsize_20="155965" name="Ponce" priority="0" radius="24323.6" region="354" version="2006" />
<trigger altitude="-181.1" latitude="0.718451489187" level="13" longitude="-0.149806500341" max_level="20" maxsize_13="65472" maxsize_14="83611" maxsize_15="99998" maxsize_16="98150" maxsize_17="110055" maxsize_18="98819" maxsize_19="93963" maxsize_20="92492" name="Porto" priority="0" radius="22456.3" region="355" version="2002" />
<trigger altitude="525.3" latitude="0.873984142560" level="13" longitude="0.252314487969" max_level="20" maxsize_13="61837" maxsize_14="134614" maxsize_15="136003" maxsize_16="134851" maxsize_17="133210" maxsize_18="124158" maxsize_19="91661" maxsize_20="104362" name="Prague" priority="0" radius="28001.5" region="357" version="2010" />
<trigger altitude="354.0" latitude="0.769840085715" level="13" longitude="-1.800414628391" max_level="20" maxsize_13="81546" maxsize_14="86416" maxsize_15="156358" maxsize_16="163053" maxsize_17="162097" maxsize_18="159099" maxsize_19="173240" maxsize_20="174162" name="Rapid City" priority="0" radius="20962.0" region="360" version="2001" />
<trigger altitude="178.6" latitude="0.859870955970" level="13" longitude="0.070945974715" max_level="20" maxsize_13="48249" maxsize_14="63401" maxsize_15="118129" maxsize_16="123438" maxsize_17="117593" maxsize_18="112851" maxsize_19="114889" maxsize_20="125246" name="Reims" priority="0" radius="15154.6" region="361" version="2005" />
<trigger altitude="17.9" latitude="0.839382312063" level="13" longitude="-0.029149014207" max_level="20" maxsize_13="57318" maxsize_14="79432" maxsize_15="143682" maxsize_16="139894" maxsize_17="129425" maxsize_18="125180" maxsize_19="134804" maxsize_20="141007" name="Rennes" priority="0" radius="13070.8" region="362" version="2002" />
<trigger altitude="-3006.4" latitude="0.320136954405" level="13" longitude="-1.155243901855" max_level="20" maxsize_13="107760" maxsize_14="132277" maxsize_15="153396" maxsize_16="167423" maxsize_17="236925" maxsize_18="194731" maxsize_19="192682" maxsize_20="186901" name="San Juan" priority="0" radius="42788.7" region="367" version="2002" />
<trigger altitude="-1785.1" latitude="0.752793881358" level="13" longitude="2.465700957693" max_level="20" maxsize_13="71334" maxsize_14="156056" maxsize_15="151135" maxsize_16="163171" maxsize_17="157226" maxsize_18="167382" maxsize_19="177115" maxsize_20="181511" name="Sapporo" priority="0" radius="38358.9" region="369" version="2004" />
<trigger altitude="-2516.8" latitude="0.667999653985" level="13" longitude="2.459396444860" max_level="20" maxsize_13="88770" maxsize_14="156229" maxsize_15="155810" maxsize_16="154657" maxsize_17="184416" maxsize_18="160753" maxsize_19="161029" maxsize_20="152389" name="Sendai" priority="0" radius="27136.2" region="371" version="2002" />
<trigger altitude="188.0" latitude="0.611069644587" level="13" longitude="2.416007886364" max_level="20" maxsize_13="113728" maxsize_14="120483" maxsize_15="152710" maxsize_16="156429" maxsize_17="275244" maxsize_18="162802" maxsize_19="168432" maxsize_20="178398" name="Shizuoka" priority="0" radius="21297.2" region="372" version="2008" />
<trigger altitude="227.1" latitude="0.848028642666" level="13" longitude="0.134416358070" max_level="20" maxsize_13="59945" maxsize_14="107620" maxsize_15="139543" maxsize_16="138085" maxsize_17="137048" maxsize_18="130079" maxsize_19="135447" maxsize_20="144685" name="Strasbourg" priority="0" radius="20405.5" region="375" version="2004" />
<trigger altitude="-268.3" latitude="0.851189387523" level="13" longitude="0.160241250647" max_level="20" maxsize_13="77802" maxsize_14="133898" maxsize_15="144345" maxsize_16="141170" maxsize_17="145718" maxsize_18="135550" maxsize_19="135577" maxsize_20="149490" name="Stuttgart" priority="0" radius="25453.4" region="376" version="2004" />
<trigger altitude="72.4" latitude="0.909403091599" level="13" longitude="0.088670641910" max_level="20" maxsize_13="58252" maxsize_14="66849" maxsize_15="96108" maxsize_16="109326" maxsize_17="138335" maxsize_18="121864" maxsize_19="135024" maxsize_20="134402" name="Utrecht" priority="0" radius="21601.5" region="385" version="2003" />
<trigger altitude="-1630.0" latitude="0.793926775940" level="13" longitude="0.211314770931" max_level="20" maxsize_13="72752" maxsize_14="91222" maxsize_15="156269" maxsize_16="145970" maxsize_17="143074" maxsize_18="129288" maxsize_19="122879" maxsize_20="121937" name="Venezia" priority="0" radius="49644.4" region="387" version="2009" />
<trigger altitude="68.1" latitude="0.766716635431" level="13" longitude="0.084371469476" max_level="20" maxsize_13="67356" maxsize_14="75026" maxsize_15="144287" maxsize_16="148457" maxsize_17="141758" maxsize_18="130697" maxsize_19="134617" maxsize_20="134100" name="Avignon" priority="0" radius="13492.7" region="390" version="2005" />
<trigger altitude="1728.4" latitude="0.670996253494" level="13" longitude="-1.837708836591" max_level="20" maxsize_13="82011" maxsize_14="108008" maxsize_15="111483" maxsize_16="134768" maxsize_17="160175" maxsize_18="136014" maxsize_19="152553" maxsize_20="126876" name="Royal Gorge" priority="0" radius="9214.7" region="391" version="2003" />
<trigger altitude="383.3" latitude="0.781526883134" level="13" longitude="0.164137712840" max_level="20" maxsize_13="60333" maxsize_14="62989" maxsize_15="91141" maxsize_16="153484" maxsize_17="150684" maxsize_18="147378" maxsize_19="146787" maxsize_20="162808" name="Bobbio" priority="0" radius="5578.6" region="392" version="2003" />
<trigger altitude="-54.6" latitude="0.454087321360" level="13" longitude="-1.943553733330" max_level="20" maxsize_13="52450" maxsize_14="73259" maxsize_15="83319" maxsize_16="142055" maxsize_17="146301" maxsize_18="146284" maxsize_19="141561" maxsize_20="156690" name="Loreto" priority="0" radius="9062.2" region="393" version="2010" />
<trigger altitude="34.1" latitude="0.861385561834" level="13" longitude="-0.014957247127" max_level="20" maxsize_13="52769" maxsize_14="47586" maxsize_15="66963" maxsize_16="91199" maxsize_17="110391" maxsize_18="120827" maxsize_19="129375" maxsize_20="136469" name="Omaha beach" priority="0" radius="10392.3" region="394" version="2002" />
<trigger altitude="111.4" latitude="0.825957919847" level="13" longitude="0.018792079541" max_level="20" maxsize_13="51367" maxsize_14="58999" maxsize_15="71261" maxsize_16="112888" maxsize_17="126157" maxsize_18="115226" maxsize_19="122383" maxsize_20="136415" name=" Chenonceaux" priority="0" radius="7239.8" region="395" version="2004" />
<trigger altitude="9.6" latitude="0.978210653653" level="13" longitude="0.222047858702" max_level="20" maxsize_13="48981" maxsize_14="45575" maxsize_15="70181" maxsize_16="89889" maxsize_17="124832" maxsize_18="114013" maxsize_19="111175" maxsize_20="112773" name="Helsingborg" priority="0" radius="15548.9" region="396" version="2005" />
<trigger altitude="61.1" latitude="0.796651385764" level="13" longitude="0.205553680599" max_level="20" maxsize_13="39826" maxsize_14="67359" maxsize_15="81711" maxsize_16="138218" maxsize_17="127280" maxsize_18="116939" maxsize_19="118764" maxsize_20="141442" name="Cittadella" priority="0" radius="5601.0" region="397" version="2001" />
<trigger altitude="-142.1" latitude="0.688629877752" level="13" longitude="-0.111200958142" max_level="20" maxsize_13="62476" maxsize_14="118523" maxsize_15="166181" maxsize_16="157457" maxsize_17="144734" maxsize_18="136307" maxsize_19="126577" maxsize_20="147554" name="Caceres" priority="0" radius="12697.1" region="398" version="2001" />
<trigger altitude="12.1" latitude="0.649790499819" level="13" longitude="-0.120802606263" max_level="20" maxsize_13="69588" maxsize_14="115303" maxsize_15="168931" maxsize_16="157108" maxsize_17="150160" maxsize_18="135448" maxsize_19="132147" maxsize_20="138364" name="Huelva" priority="0" radius="15946.1" region="399" version="2002" />
<trigger altitude="214.0" latitude="0.678773286287" level="13" longitude="-0.121597478117" max_level="20" maxsize_13="51188" maxsize_14="106957" maxsize_15="146750" maxsize_16="143709" maxsize_17="135285" maxsize_18="123782" maxsize_19="131959" maxsize_20="124937" name="Badajoz" priority="0" radius="15297.6" region="403" version="2002" />
<trigger altitude="1767.2" latitude="0.432823156488" level="13" longitude="-1.874851319140" max_level="20" maxsize_13="80907" maxsize_14="108772" maxsize_15="138546" maxsize_16="147176" maxsize_17="163921" maxsize_18="138945" maxsize_19="134840" maxsize_20="154602" name="Culican" priority="0" radius="24594.4" region="404" version="2006" />
<trigger altitude="33.8" latitude="0.837323738482" level="13" longitude="0.004217754208" max_level="20" maxsize_13="89170" maxsize_14="116687" maxsize_15="129547" maxsize_16="133097" maxsize_17="140464" maxsize_18="135385" maxsize_19="129831" maxsize_20="128093" name="Le Mans" priority="0" radius="16373.5" region="406" version="2002" />
<trigger altitude="2287.5" latitude="0.343550227013" level="13" longitude="-1.725708130555" max_level="20" maxsize_13="81678" maxsize_14="82560" maxsize_15="98752" maxsize_16="145060" maxsize_17="144912" maxsize_18="137634" maxsize_19="151619" maxsize_20="166686" name="Teotihuacan" priority="0" radius="13310.6" region="407" version="2009" />
<trigger altitude="-20.3" latitude="0.361186297566" level="13" longitude="-1.545868751742" max_level="20" maxsize_13="72488" maxsize_14="79099" maxsize_15="119840" maxsize_16="133815" maxsize_17="154585" maxsize_18="147118" maxsize_19="148348" maxsize_20="166181" name="Chichen Itza" priority="0" radius="9858.6" region="602" version="2003" />
<trigger altitude="3.0" latitude="0.937863405102" level="13" longitude="-0.006139964106" max_level="20" maxsize_13="36009" maxsize_14="45652" maxsize_15="64042" maxsize_16="99421" maxsize_17="105578" maxsize_18="101477" maxsize_19="103634" maxsize_20="108098" name="Hull" priority="0" radius="20259.8" region="603" version="2001" />
<trigger altitude="-617.9" latitude="0.405678886177" level="13" longitude="-1.856917072469" max_level="20" maxsize_13="81508" maxsize_14="83373" maxsize_15="142692" maxsize_16="157531" maxsize_17="218663" maxsize_18="137075" maxsize_19="136388" maxsize_20="150398" name="Mazatlan " priority="0" radius="20168.9" region="604" version="2006" />
<trigger altitude="12.4" latitude="0.884060951823" level="13" longitude="0.054423815562" max_level="20" maxsize_13="51898" maxsize_14="105843" maxsize_15="127724" maxsize_16="125200" maxsize_17="124256" maxsize_18="105432" maxsize_19="116102" maxsize_20="128994" name="Lille" priority="0" radius="22395.2" region="605" version="2010" />
<trigger altitude="-238.7" latitude="0.764847394119" level="13" longitude="0.135737860475" max_level="20" maxsize_13="74831" maxsize_14="85283" maxsize_15="139727" maxsize_16="147937" maxsize_17="138188" maxsize_18="132896" maxsize_19="137329" maxsize_20="128549" name="Sanremo" priority="0" radius="20388.0" region="607" version="2004" />
<trigger altitude="-394.4" latitude="0.775327901788" level="13" longitude="0.156916797830" max_level="20" maxsize_13="80085" maxsize_14="156851" maxsize_15="160174" maxsize_16="139540" maxsize_17="213825" maxsize_18="138259" maxsize_19="129958" maxsize_20="131370" name="Genova" priority="0" radius="33375.2" region="608" version="2002" />
<trigger altitude="1694.1" latitude="0.571435826712" level="13" longitude="2.266120324949" max_level="20" maxsize_13="93379" maxsize_14="109506" maxsize_15="154051" maxsize_16="147001" maxsize_17="153288" maxsize_18="136086" maxsize_19="123794" maxsize_20="148365" name="Nagasaki" priority="0" radius="15631.4" region="610" version="2012" />
<trigger altitude="1438.2" latitude="-0.489478787445" level="13" longitude="2.678090043133" max_level="20" maxsize_13="168525" maxsize_14="188346" maxsize_15="175923" maxsize_16="164353" maxsize_17="226581" maxsize_18="173671" maxsize_19="164904" maxsize_20="173829" name="Gold Coast " priority="0" radius="36369.6" region="611" version="2002" />
<trigger altitude="2512.9" latitude="0.707022472820" level="13" longitude="-2.119032919849" max_level="20" maxsize_13="99352" maxsize_14="139021" maxsize_15="178002" maxsize_16="171894" maxsize_17="283956" maxsize_18="174898" maxsize_19="148545" maxsize_20="129607" name="lassen volcano" priority="0" radius="23189.5" region="614" version="2010" />
<trigger altitude="297.7" latitude="0.765067114291" level="13" longitude="0.193520407660" max_level="20" maxsize_13="87324" maxsize_14="146265" maxsize_15="159068" maxsize_16="154013" maxsize_17="176993" maxsize_18="163964" maxsize_19="159813" maxsize_20="150290" name="firenze" priority="0" radius="31370.5" region="615" version="2002" />
<trigger altitude="389.7" latitude="0.863372341838" level="13" longitude="0.192573894565" max_level="20" maxsize_13="103736" maxsize_14="164264" maxsize_15="151518" maxsize_16="145817" maxsize_17="168266" maxsize_18="135004" maxsize_19="134467" maxsize_20="142275" name="nuremberg" priority="0" radius="19667.3" region="616" version="2002" />
<trigger altitude="288.3" latitude="0.830214931522" level="13" longitude="0.187197553876" max_level="20" maxsize_13="68229" maxsize_14="103271" maxsize_15="129003" maxsize_16="142833" maxsize_17="249134" maxsize_18="162235" maxsize_19="127369" maxsize_20="127016" name="Neuschwanstein Castle " priority="0" radius="14170.4" region="617" version="2005" />
<trigger altitude="81.8" latitude="0.788845359693" level="13" longitude="0.159918328580" max_level="20" maxsize_13="68924" maxsize_14="77982" maxsize_15="160198" maxsize_16="149715" maxsize_17="134355" maxsize_18="122525" maxsize_19="141424" maxsize_20="159739" name="Pavia" priority="0" radius="8202.5" region="619" version="2002" />
<trigger altitude="-759.4" latitude="0.569086023354" level="13" longitude="-2.014188255972" max_level="20" maxsize_13="59155" maxsize_14="74223" maxsize_15="93263" maxsize_16="118051" maxsize_17="176831" maxsize_18="122597" maxsize_19="121802" maxsize_20="120708" name="Mexicali" priority="0" radius="27024.9" region="620" version="2002" />
<trigger altitude="-333.7" latitude="0.337407229817" level="13" longitude="-2.720882369361" max_level="20" maxsize_13="98135" maxsize_14="145657" maxsize_15="165524" maxsize_16="178866" maxsize_17="287492" maxsize_18="191759" maxsize_19="184514" maxsize_20="198998" name="Hawaii" priority="0" radius="60143.0" region="621" version="2006" />
<trigger altitude="159.5" latitude="0.754476000970" level="13" longitude="0.041394589821" max_level="20" maxsize_13="68812" maxsize_14="62093" maxsize_15="123395" maxsize_16="146137" maxsize_17="131338" maxsize_18="121258" maxsize_19="113987" maxsize_20="114552" name="Carcassonne" priority="0" radius="10323.0" region="622" version="2001" />
<trigger altitude="1351.2" latitude="0.645218297099" level="13" longitude="-1.922772064218" max_level="20" maxsize_13="92945" maxsize_14="118742" maxsize_15="111115" maxsize_16="106550" maxsize_17="154741" maxsize_18="126226" maxsize_19="147927" maxsize_20="126929" name="Monument Valley" priority="0" radius="30601.6" region="623" version="2002" />
<trigger altitude="-144.4" latitude="0.352568489933" level="13" longitude="-1.526321705182" max_level="20" maxsize_13="49878" maxsize_14="81565" maxsize_15="106471" maxsize_16="139716" maxsize_17="142718" maxsize_18="128286" maxsize_19="128211" maxsize_20="145832" name="Tulum" priority="0" radius="11664.0" region="625" version="2004" />
<trigger altitude="1036.5" latitude="0.763929049255" level="13" longitude="0.110412397437" max_level="20" maxsize_13="86149" maxsize_14="101536" maxsize_15="121790" maxsize_16="139367" maxsize_17="137267" maxsize_18="131542" maxsize_19="135170" maxsize_20="127732" name="gorge du verdon" priority="0" radius="17937.6" region="626" version="2002" />
<trigger altitude="167.5" latitude="0.773884099594" level="13" longitude="0.078215042996" max_level="20" maxsize_13="58771" maxsize_14="65768" maxsize_15="82175" maxsize_16="101376" maxsize_17="121933" maxsize_18="117051" maxsize_19="124062" maxsize_20="117512" name="Gorges de l Ardeche " priority="0" radius="12992.5" region="627" version="2027" />
<trigger altitude="79.9" latitude="0.906599162842" level="13" longitude="0.133075715579" max_level="20" maxsize_13="54152" maxsize_14="76291" maxsize_15="125620" maxsize_16="127685" maxsize_17="140037" maxsize_18="129198" maxsize_19="127798" maxsize_20="135862" name="Munster" priority="0" radius="14923.2" region="631" version="2003" />
<trigger altitude="584.7" latitude="0.801426342975" level="13" longitude="0.106929166827" max_level="20" maxsize_13="64768" maxsize_14="86266" maxsize_15="146802" maxsize_16="138189" maxsize_17="130477" maxsize_18="132128" maxsize_19="139756" maxsize_20="137149" name="Annecy" priority="0" radius="13597.5" region="633" version="2001" />
</triggers>
</manifest>